{
  "type" : "FeatureCollection",
  "features" : [{"type":"Feature","id":0,"geometry":{"type":"Point","coordinates":[35.165793898255203,31.935021661720778]},"properties":{"FID":0,"OBJECTID_1":1,"NAME_AR":"صيدلية الريحان","Number":"0598000115","Field":""}},{"type":"Feature","id":1,"geometry":{"type":"Point","coordinates":[35.177778540921715,31.916257031633908]},"properties":{"FID":1,"OBJECTID_1":2,"NAME_AR":"صيدلية الطيرة","Number":"0599201180","Field":""}},{"type":"Feature","id":2,"geometry":{"type":"Point","coordinates":[35.182174216255746,31.917003542573589]},"properties":{"FID":2,"OBJECTID_1":3,"NAME_AR":"Right Aid","Number":"0594821102","Field":""}},{"type":"Feature","id":3,"geometry":{"type":"Point","coordinates":[35.183672302611107,31.913365004115118]},"properties":{"FID":3,"OBJECTID_1":4,"NAME_AR":"صيدية ميجا فارم","Number":"0597339977","Field":""}},{"type":"Feature","id":4,"geometry":{"type":"Point","coordinates":[35.198632429753289,31.904871867007035]},"properties":{"FID":4,"OBJECTID_1":5,"NAME_AR":" صيدلية البرغوثي","Number":"0569347931","Field":""}},{"type":"Feature","id":5,"geometry":{"type":"Point","coordinates":[35.199229698101995,31.908206534894514]},"properties":{"FID":5,"OBJECTID_1":6,"NAME_AR":"صيدلية البراء","Number":"0598342701","Field":""}},{"type":"Feature","id":6,"geometry":{"type":"Point","coordinates":[35.204074611934523,31.909145550830413]},"properties":{"FID":6,"OBJECTID_1":7,"NAME_AR":"شركة بيوتك للتوريدات الطبية","Number":"0598720273","Field":""}},{"type":"Feature","id":7,"geometry":{"type":"Point","coordinates":[35.206134715983133,31.908686118863653]},"properties":{"FID":7,"OBJECTID_1":8,"NAME_AR":"صيدلية فارما ون","Number":"0599665501","Field":""}},{"type":"Feature","id":8,"geometry":{"type":"Point","coordinates":[35.206407818568138,31.906734878097613]},"properties":{"FID":8,"OBJECTID_1":9,"NAME_AR":"Pharmsy One","Number":"0567720136","Field":""}},{"type":"Feature","id":9,"geometry":{"type":"Point","coordinates":[35.206394380147984,31.905819180706903]},"properties":{"FID":9,"OBJECTID_1":10,"NAME_AR":"صيدلية الكردي","Number":"0596050431","Field":""}},{"type":"Feature","id":10,"geometry":{"type":"Point","coordinates":[35.206446252292508,31.905634119596986]},"properties":{"FID":10,"OBJECTID_1":11,"NAME_AR":"صيدلية نبيل","Number":"22954589","Field":""}},{"type":"Feature","id":11,"geometry":{"type":"Point","coordinates":[35.204985732164559,31.90700561788071]},"properties":{"FID":11,"OBJECTID_1":12,"NAME_AR":"  البرغوثي دنت","Number":"0563405097","Field":""}},{"type":"Feature","id":12,"geometry":{"type":"Point","coordinates":[35.204658463754733,31.906473381407345]},"properties":{"FID":12,"OBJECTID_1":13,"NAME_AR":" صيدلية ابو غزاله","Number":"0599840799","Field":""}},{"type":"Feature","id":13,"geometry":{"type":"Point","coordinates":[35.203748650051402,31.905174657811351]},"properties":{"FID":13,"OBJECTID_1":14,"NAME_AR":"صيدلية فراس","Number":"0595633021","Field":""}},{"type":"Feature","id":14,"geometry":{"type":"Point","coordinates":[35.205379550657334,31.905374104213198]},"properties":{"FID":14,"OBJECTID_1":15,"NAME_AR":" صيدلية غوشة","Number":"0599533514","Field":""}},{"type":"Feature","id":15,"geometry":{"type":"Point","coordinates":[35.205855069328045,31.907010409076552]},"properties":{"FID":15,"OBJECTID_1":16,"NAME_AR":"Dara Shop","Number":"0567842308","Field":""}},{"type":"Feature","id":16,"geometry":{"type":"Point","coordinates":[35.203981465191802,31.905567358162823]},"properties":{"FID":16,"OBJECTID_1":17,"NAME_AR":" صيدلية صيام","Number":"0599161116","Field":""}},{"type":"Feature","id":17,"geometry":{"type":"Point","coordinates":[35.201982942836231,31.904094794557466]},"properties":{"FID":17,"OBJECTID_1":18,"NAME_AR":"صيدلية جراند فارم","Number":"0599345029","Field":""}},{"type":"Feature","id":18,"geometry":{"type":"Point","coordinates":[35.20298935365701,31.904323543869985]},"properties":{"FID":18,"OBJECTID_1":19,"NAME_AR":" صيدلية طوباسي","Number":"0599640040","Field":""}},{"type":"Feature","id":19,"geometry":{"type":"Point","coordinates":[35.202513889329914,31.90402213509525]},"properties":{"FID":19,"OBJECTID_1":20,"NAME_AR":" صيدلية الشفاء","Number":"0599369654","Field":""}},{"type":"Feature","id":20,"geometry":{"type":"Point","coordinates":[35.201048126796181,31.90403696747584]},"properties":{"FID":20,"OBJECTID_1":21,"NAME_AR":"صيدلية السلوادي","Number":"0599845650","Field":""}},{"type":"Feature","id":21,"geometry":{"type":"Point","coordinates":[35.196818350446797,31.902624822822499]},"properties":{"FID":21,"OBJECTID_1":22,"NAME_AR":"صيدلية رولا","Number":"0594115155","Field":""}},{"type":"Feature","id":22,"geometry":{"type":"Point","coordinates":[35.196368787890776,31.902777505854004]},"properties":{"FID":22,"OBJECTID_1":23,"NAME_AR":"ايمي","Number":"0598840127","Field":""}},{"type":"Feature","id":23,"geometry":{"type":"Point","coordinates":[35.18813433749326,31.898175216879217]},"properties":{"FID":23,"OBJECTID_1":24,"NAME_AR":"صيدلية الاوائل","Number":"0599040202","Field":""}},{"type":"Feature","id":24,"geometry":{"type":"Point","coordinates":[35.198612454996599,31.900174741881134]},"properties":{"FID":24,"OBJECTID_1":25,"NAME_AR":"صيدلية الماصيون","Number":"0597732611","Field":""}},{"type":"Feature","id":25,"geometry":{"type":"Point","coordinates":[35.2041992164501,31.90190706695882]},"properties":{"FID":25,"OBJECTID_1":26,"NAME_AR":"صيدلية الاقصى","Number":"0597411235","Field":""}},{"type":"Feature","id":26,"geometry":{"type":"Point","coordinates":[35.20430485880086,31.90308911346342]},"properties":{"FID":26,"OBJECTID_1":27,"NAME_AR":"صيدلية المدنية","Number":"0569440066","Field":""}},{"type":"Feature","id":27,"geometry":{"type":"Point","coordinates":[35.204890791591474,31.902741558662061]},"properties":{"FID":27,"OBJECTID_1":28,"NAME_AR":"    وايت دنتل صبلاي","Number":"0595073261","Field":""}},{"type":"Feature","id":28,"geometry":{"type":"Point","coordinates":[35.204170415769113,31.900086418521632]},"properties":{"FID":28,"OBJECTID_1":29,"NAME_AR":"  ريماس","Number":"0595076857","Field":""}},{"type":"Feature","id":29,"geometry":{"type":"Point","coordinates":[35.202988022648626,31.903184421248167]},"properties":{"FID":29,"OBJECTID_1":30,"NAME_AR":" صيدلية الوفاء","Number":"0568798439","Field":""}},{"type":"Feature","id":30,"geometry":{"type":"Point","coordinates":[35.204905206327865,31.899813655671945]},"properties":{"FID":30,"OBJECTID_1":31,"NAME_AR":" صيدلية سناء","Number":"0597252125","Field":""}},{"type":"Feature","id":31,"geometry":{"type":"Point","coordinates":[35.203664809784584,31.897552417696676]},"properties":{"FID":31,"OBJECTID_1":32,"NAME_AR":"صيدلية مطرية 3","Number":"0598037883","Field":""}},{"type":"Feature","id":32,"geometry":{"type":"Point","coordinates":[35.205072638434068,31.89609994800777]},"properties":{"FID":32,"OBJECTID_1":33,"NAME_AR":"صيدلية اسامه الكبرى","Number":"0599786199","Field":""}},{"type":"Feature","id":33,"geometry":{"type":"Point","coordinates":[35.203448850784838,31.893466626407729]},"properties":{"FID":33,"OBJECTID_1":34,"NAME_AR":"صيدلية ماكس كير","Number":"0598707066","Field":""}},{"type":"Feature","id":34,"geometry":{"type":"Point","coordinates":[35.198945285178119,31.897101172872066]},"properties":{"FID":34,"OBJECTID_1":35,"NAME_AR":"الامنية ميديكال للمستلزمات الطبية","Number":"0595587531","Field":""}},{"type":"Feature","id":35,"geometry":{"type":"Point","coordinates":[35.19881438274318,31.892212243158717]},"properties":{"FID":35,"OBJECTID_1":36,"NAME_AR":"صيدلية الاكسير","Number":"0597939562","Field":""}},{"type":"Feature","id":36,"geometry":{"type":"Point","coordinates":[35.205099719495216,31.919297016905876]},"properties":{"FID":36,"OBJECTID_1":37,"NAME_AR":"صيدلية المهدي","Number":"0599292382","Field":""}},{"type":"Feature","id":37,"geometry":{"type":"Point","coordinates":[35.196848040351938,31.904700136536903]},"properties":{"FID":37,"OBJECTID_1":38,"NAME_AR":" صيدلية الشعب","Number":"0599877258","Field":""}},{"type":"Feature","id":38,"geometry":{"type":"Point","coordinates":[35.204973102342223,31.897318244151705]},"properties":{"FID":38,"OBJECTID_1":39,"NAME_AR":"صيدلية المجمع","Number":"0598016711","Field":""}},{"type":"Feature","id":39,"geometry":{"type":"Point","coordinates":[35.204990367365681,31.897317045629315]},"properties":{"FID":39,"OBJECTID_1":40,"NAME_AR":"صيدلية المجمع","Number":"0598016711","Field":""}},{"type":"Feature","id":40,"geometry":{"type":"Point","coordinates":[35.198638188891259,31.904873142858634]},"properties":{"FID":40,"OBJECTID_1":41,"NAME_AR":" صيدلية البرغوثي","Number":"0569347931","Field":""}},{"type":"Feature","id":41,"geometry":{"type":"Point","coordinates":[35.204074611934523,31.909145550830413]},"properties":{"FID":41,"OBJECTID_1":42,"NAME_AR":"شركة بيوتك للتوريدات الطبية","Number":"0598720273","Field":""}},{"type":"Feature","id":42,"geometry":{"type":"Point","coordinates":[35.206134715983133,31.908686118863653]},"properties":{"FID":42,"OBJECTID_1":43,"NAME_AR":"صيدلية فارما ون","Number":"0599665501","Field":""}},{"type":"Feature","id":43,"geometry":{"type":"Point","coordinates":[35.204653747598684,31.906475282270396]},"properties":{"FID":43,"OBJECTID_1":44,"NAME_AR":" صيدلية ابو غزاله","Number":"0599840799","Field":""}},{"type":"Feature","id":44,"geometry":{"type":"Point","coordinates":[35.205067391070401,31.896102531575607]},"properties":{"FID":44,"OBJECTID_1":45,"NAME_AR":"صيدلية اسامه الكبرى","Number":"0599786199","Field":""}},{"type":"Feature","id":45,"geometry":{"type":"Point","coordinates":[35.201021068630396,31.90399057840591]},"properties":{"FID":45,"OBJECTID_1":46,"NAME_AR":"صيدلية السلوادي","Number":"0599845650","Field":""}},{"type":"Feature","id":46,"geometry":{"type":"Point","coordinates":[35.195975030861959,31.904305604738529]},"properties":{"FID":46,"OBJECTID_1":47,"NAME_AR":" صيدلية رام الله القديمة","Number":"0599496565","Field":""}},{"type":"Feature","id":47,"geometry":{"type":"Point","coordinates":[35.204201602831674,31.901913808578087]},"properties":{"FID":47,"OBJECTID_1":48,"NAME_AR":"صيدلية الاقصى","Number":"0597411235","Field":""}},{"type":"Feature","id":48,"geometry":{"type":"Point","coordinates":[35.205113491099581,31.919295046181556]},"properties":{"FID":48,"OBJECTID_1":49,"NAME_AR":"صيدلية المهدي","Number":"0599292382","Field":""}},{"type":"Feature","id":49,"geometry":{"type":"Point","coordinates":[35.198813328787097,31.8922205023784]},"properties":{"FID":49,"OBJECTID_1":50,"NAME_AR":"صيدلية الاكسير","Number":"0597939562","Field":""}},{"type":"Feature","id":50,"geometry":{"type":"Point","coordinates":[35.19637032274867,31.902771760236782]},"properties":{"FID":50,"OBJECTID_1":51,"NAME_AR":"ايمي","Number":"0598840127","Field":""}},{"type":"Feature","id":51,"geometry":{"type":"Point","coordinates":[35.196817221875349,31.902628614144064]},"properties":{"FID":51,"OBJECTID_1":52,"NAME_AR":"صيدلية رولا","Number":"0594115155","Field":""}}]
}